{
  "dealers": [
    {
      "id": 1,
      "title": "Москва",
      "offices": [
        {
          "id": 64211,
          "dealer": "А-1 СПБ",
          "phone": "+7(916) 848-6086",
          "address": "г.Москва, ул.Талалихина 41 стр. 33",
          "coordinates": "55.728145, 37.681335"
        },
        {
          "id": 680,
          "dealer": "ООО А-1",
          "phone": "+7(916) 848-6067",
          "address": "г.Москва, ул. Талалихина 41 стр. 33",
          "coordinates": "55.728145, 37.681335"
        }
      ]
    },
    {
      "id": 2,
      "title": "Курск",
      "offices": [
        {
          "id": 19350,
          "dealer": "ИП ЗЕРНИЦКИЙ АЛЕКСАНДР СЕРГЕЕВИЧ",
          "phone": "+7(472) 240-2040",
          "address": "г.Курск, ул. Бойцов 9-ой Дивизии, 179Б",
          "coordinates": "51.733176, 36.162543"
        }
      ]
    },
    {
      "id": 3,
      "title": "Орёл",
      "offices": [
        {
          "id": 1103,
          "dealer": "ИП ФЕДОСОВ СЕРГЕЙ СЕРГЕЕВИЧ",
          "phone": "+7(486) 278-3277",
          "address": "г.Орёл, ул.Гайдара, 54 стр.1",
          "coordinates": "52.999795, 36.086078"
        }
      ]
    },
    {
      "id": 4,
      "title": "Симферополь",
      "offices": [
        {
          "id": 10501,
          "dealer": "ИП ЕРШОВ МАКСИМ ГЕННАДЬЕВИЧ",
          "phone": "+7(978) 737-0083",
          "address": "г.Симферополь, ул. Москалева, 13/2",
          "coordinates": "44.955110, 34.070607"
        },
        {
          "id": 4444,
          "dealer": "ИП ОРУНОВ С.Ф. (КРЫМ)",
          "phone": "+7(988) 139-2032",
          "address": "г.Симферополь пер. Лавандовый, 2/13",
          "coordinates": "44.989752, 34.091413"
        }
      ]
    }
  ]
}
